City_ID,City,Lat,Lng,Max Temp,Humidity,Cloudiness,Wind Speed,Country,Date
0,ust-nera,64.5667,143.2,16.69,45,50,2.72,RU,1689696792
1,glace bay,46.1969,-59.957,27.34,84,75,9.26,CA,1689696792
2,invercargill,-46.4,168.35,9.03,77,35,4.46,NZ,1689696792
3,klintsy,52.7602,32.2393,18.62,73,10,6.56,RU,1689696792
4,utrik,11.2278,169.8474,27.88,81,62,5.85,MH,1689696792
5,adamstown,-25.066,-130.1015,21.03,79,89,3.75,PN,1689696793
6,blackmans bay,-43.0167,147.3167,7.07,69,33,6.52,AU,1689696793
7,karatuzskoye,53.6072,92.8667,16.53,79,1,1.52,RU,1689696793
8,waitangi,-43.9535,-176.5597,11.01,83,73,3.13,NZ,1689696793
9,college,64.8569,-147.8028,16.44,87,75,1.54,US,1689696794
10,shalqar,47.8333,59.6,24.88,37,60,5.99,KZ,1689696794
11,beitbridge,-22.2167,30.0,20.66,29,0,2.48,ZW,1689696794
12,nar'yan-mar,67.6713,53.087,20.12,73,96,0.86,RU,1689696794
13,gryfow slaski,51.0308,15.4202,25.42,42,98,3.31,PL,1689696794
14,qamdo,31.1667,97.2333,6.09,76,68,1.07,CN,1689696795
15,hawaiian paradise park,19.5933,-154.9731,24.73,90,100,4.12,US,1689696795
16,lobujya,27.95,86.8167,3.71,97,100,1.65,NP,1689696795
17,edinburgh of the seven seas,-37.0676,-12.3116,13.98,95,100,12.65,SH,1689696795
18,vorkuta,67.5,64.0,19.23,77,76,2.46,RU,1689696796
19,albany,42.6001,-73.9662,28.78,70,31,0.89,US,1689696590
20,polyarnyy,69.1989,33.4478,17.9,67,100,1.89,RU,1689696796
21,labasa,-16.4167,179.3833,22.54,88,91,4.86,FJ,1689696796
22,afaahiti,-17.75,-149.2833,23.93,73,40,6.34,PF,1689696796
23,port elizabeth,-33.918,25.5701,17.28,82,0,7.72,ZA,1689696797
24,yellowknife,62.456,-114.3525,20.4,52,5,3.77,CA,1689696601
25,nagqu,31.5,92.0,4.62,91,70,1.96,CN,1689696797
26,hassi messaoud,31.6804,6.0729,42.92,8,0,6.17,DZ,1689696797
27,bentiu,9.2333,29.8333,26.54,70,94,3.63,SS,1689696798
28,olonkinbyen,70.9221,-8.7187,4.54,92,49,8.55,SJ,1689696798
29,port-aux-francais,-49.35,70.2167,5.16,85,82,16.73,TF,1689696798
30,minas de marcona,-15.2119,-75.1103,16.22,63,34,5.12,PE,1689696798
31,puerto natales,-51.7236,-72.4875,2.25,60,75,1.54,CL,1689696799
32,lebu,-37.6167,-73.65,10.94,58,100,4.13,CL,1689696799
33,progreso,21.2833,-89.6667,33.95,65,7,4.57,MX,1689696799
34,belmonte,-15.8631,-38.8828,26.46,58,6,3.27,BR,1689696799
35,grytviken,-54.2811,-36.5092,-4.76,80,20,4.23,GS,1689696800
36,tual,-5.6667,132.75,26.64,81,6,9.09,ID,1689696800
37,narasannapeta,18.4167,84.05,25.47,93,98,3.9,IN,1689696800
38,udachny,66.4167,112.4,14.18,74,79,7.59,RU,1689696800
39,hilo,19.7297,-155.09,24.85,87,100,4.12,US,1689696646
40,fort bragg,35.139,-79.006,33.23,55,0,1.79,US,1689696801
41,vuktyl,63.8567,57.3094,23.36,51,98,1.43,RU,1689696801
42,east london,-33.0153,27.9116,19.24,67,29,4.55,ZA,1689696503
43,georgetown,5.4112,100.3354,29.97,79,20,1.54,MY,1689696801
44,bethel,41.3712,-73.414,30.01,70,40,3.6,US,1689696539
45,umm kaddadah,13.6017,26.6876,38.46,20,92,1.11,SD,1689696802
46,pindobacu,-10.7417,-40.3608,28.61,36,69,3.7,BR,1689696802
47,kendari,-3.945,122.4989,24.14,90,89,1.45,ID,1689696756
48,bolobo,-2.1667,16.2333,33.53,27,98,0.86,CD,1689696802
49,puerto ayora,-0.7393,-90.3518,28.98,91,55,3.58,EC,1689696802
50,longyearbyen,78.2186,15.6401,10.91,54,0,1.03,SJ,1689696803
51,pacocha,-17.5833,-71.3333,20.08,78,40,5.14,PE,1689696803
52,saipan,15.1355,145.701,27.58,100,40,2.57,MP,1689696803
53,west bay,19.3667,-81.4167,33.04,75,20,6.69,KY,1689696803
54,chingirlau,51.095,54.0814,20.32,70,76,3.99,KZ,1689696804
55,avarua,-21.2078,-159.775,20.03,100,75,1.54,CK,1689696804
56,svobodnyy,51.4,128.1333,20.72,63,20,2.95,RU,1689696804
57,ushuaia,-54.8,-68.3,2.79,91,99,2.33,AR,1689696619
58,port macquarie,-31.4333,152.9167,11.26,79,12,2.86,AU,1689696805
59,alvorada,-12.48,-49.1247,35.57,19,29,3.24,BR,1689696805
60,luderitz,-26.6481,15.1594,19.07,65,0,9.07,NA,1689696805
61,dalyellup,-33.3986,115.6168,14.01,82,95,10.61,AU,1689696806
62,tiksi,71.6872,128.8694,5.01,73,28,4.02,RU,1689696806
63,bilibino,68.0546,166.4372,13.91,83,15,0.57,RU,1689696807
64,labytnangi,66.6572,66.4183,21.16,64,65,2.31,RU,1689696807
65,papatowai,-46.5619,169.4708,10.63,64,48,6.17,NZ,1689696807
66,vernon,50.2581,-119.2691,19.78,53,1,0.51,CA,1689696641
67,fort st. john,56.2499,-120.8529,12.94,88,100,3.6,CA,1689696808
68,dawei,14.0833,98.2,24.58,95,100,3.32,MM,1689696809
69,gadzhiyevo,69.2551,33.3362,18.09,67,100,2.25,RU,1689696810
70,jinchang,38.4953,102.1739,26.95,25,0,1.34,CN,1689696810
71,kulhudhuffushi,6.6221,73.07,28.43,76,82,6.15,MV,1689696811
72,la'ie,21.6477,-157.9253,25.98,79,32,2.68,US,1689696811
73,enewetak,11.3474,162.3373,28.39,79,57,6.25,MH,1689696811
74,port lincoln,-34.7333,135.8667,11.24,77,27,6.87,AU,1689696811
75,chibougamau,49.9168,-74.3659,20.79,60,20,4.29,CA,1689696812
76,alofi,-19.0595,-169.9187,20.94,78,98,4.63,NU,1689696812
77,altay,47.8667,88.1167,21.39,36,2,3.29,CN,1689696812
78,ust'-ilimsk,58.0006,102.6619,13.45,63,39,0.44,RU,1689696812
79,wakimachi,34.0667,134.15,24.51,91,86,1.87,JP,1689696562
80,floro,61.5996,5.0328,12.98,71,75,7.72,NO,1689696813
81,salinopolis,-0.6136,-47.3561,29.0,68,7,5.91,BR,1689696813
82,howard springs,-12.497,131.047,22.95,67,18,1.6,AU,1689696813
83,faya-largeau,17.9257,19.1043,42.99,8,47,2.0,TD,1689696813
84,abepura,-2.6333,140.5833,25.45,83,20,2.06,ID,1689696813
85,ar rutbah,33.0381,40.2848,36.25,10,0,4.58,IQ,1689696814
86,st. john's,47.5649,-52.7093,27.93,80,75,9.26,CA,1689696634
87,mejit,10.2753,170.8646,27.89,82,84,6.65,MH,1689696814
88,wafangdian,39.6183,122.0081,20.44,73,0,1.02,CN,1689696814
89,hun,29.1268,15.9477,37.71,14,0,6.35,LY,1689696814
90,rossosh',51.1209,38.5116,21.63,81,100,6.07,RU,1689696815
91,bikenibeu village,1.3673,173.1241,26.98,83,75,2.06,KI,1689696815
92,pitimbu,-7.4706,-34.8086,28.33,76,39,7.53,BR,1689696815
93,usogorsk,63.4106,48.6872,21.35,62,89,1.51,RU,1689696816
94,harar,9.3094,42.1258,19.35,63,24,4.0,ET,1689696816
95,bengkulu,-3.8004,102.2655,24.57,90,53,3.71,ID,1689696816
96,west island,-12.1568,96.8225,25.99,78,100,9.26,CC,1689696816
97,ibotirama,-12.1853,-43.2206,33.76,21,0,1.71,BR,1689696817
98,zhanaozen,43.3,52.8,25.0,37,6,6.95,KZ,1689696817
99,severo-yeniseyskiy,60.3725,93.0408,12.12,63,12,1.37,RU,1689696817
100,sao joao da barra,-21.6403,-41.0511,30.05,70,16,3.41,BR,1689696817
101,westport,41.1415,-73.3579,30.93,76,40,3.09,US,1689696817
102,ilulissat,69.2167,-51.1,10.01,81,40,3.09,GL,1689696817
103,kavaratti,10.5669,72.642,28.22,81,87,8.27,IN,1689696818
104,shahr-e babak,30.1165,55.1186,33.49,14,92,3.77,IR,1689696818
105,jinghong,21.991,100.7341,25.73,59,94,1.56,CN,1689696818
106,punta arenas,-53.15,-70.9167,3.06,75,0,8.75,CL,1689696818
107,benguela,-12.5763,13.4055,23.06,80,37,2.45,AO,1689696818
108,kruisfontein,-34.0033,24.7314,16.05,94,12,2.94,ZA,1689696819
109,nosy varika,-20.5833,48.5333,21.52,79,37,1.55,MG,1689696819
110,guardo,42.7897,-4.8482,31.36,15,2,6.79,ES,1689696819
111,whitehorse,60.7161,-135.0538,14.43,72,75,3.6,CA,1689696819
112,vershino-darasunskiy,52.35,115.5167,14.06,85,77,3.52,RU,1689696819
113,sinabang,2.4803,96.3801,26.6,82,100,2.06,ID,1689696819
114,bredasdorp,-34.5322,20.0403,12.7,76,58,10.54,ZA,1689696820
115,xining,36.6167,101.7667,15.67,51,20,0.87,CN,1689696820
116,la gi,10.6667,107.7833,25.67,91,94,4.61,VN,1689696820
117,klyuchi,52.2667,79.1667,21.85,42,86,3.53,RU,1689696820
118,stanley,54.868,-1.6985,14.18,92,75,2.06,GB,1689696820
119,tostado,-29.232,-61.7692,15.55,37,25,3.36,AR,1689696821
120,iqaluit,63.7506,-68.5145,6.85,93,100,1.54,CA,1689696821
121,crane,31.3974,-102.3501,33.46,30,0,9.22,US,1689696821
122,egersund,58.4513,5.9997,15.21,71,76,7.3,NO,1689696821
123,la sarre,48.8002,-79.1996,17.41,66,63,4.53,CA,1689696821
124,terrace,54.5163,-128.6035,15.68,82,100,4.12,CA,1689696821
125,san gabriel chilac,18.3167,-97.35,23.71,61,100,3.33,MX,1689696822
126,port mathurin,-19.6833,63.4167,23.48,83,100,12.07,MU,1689696822
127,thompson,55.7435,-97.8558,19.09,55,40,0.0,CA,1689696822
128,quellon,-43.1167,-73.6167,7.14,93,0,2.06,CL,1689696822
129,burutu,5.3509,5.5076,27.48,76,100,5.16,NG,1689696822
130,malyye derbety,47.9547,44.6808,25.39,47,48,3.51,RU,1689696822
131,oodweyne,9.4092,45.064,28.82,35,64,8.92,SO,1689696823
132,south hedland,-20.4089,118.5983,15.96,77,51,0.0,AU,1689696823
133,ridder,50.355,83.5133,18.38,64,0,1.59,KZ,1689696823
134,saint-pierre,-21.3393,55.4781,21.82,78,0,9.77,RE,1689696823
135,geraldton,-28.7667,114.6,19.23,72,100,7.2,AU,1689696823
136,chonchi,-42.6128,-73.8092,6.18,75,100,1.73,CL,1689696824
137,cestos city,5.46,-9.5828,25.56,82,100,4.95,LR,1689696824
138,kafir qala,34.6667,61.0667,30.89,29,0,12.43,AF,1689696824
139,kailua-kona,19.6406,-155.9956,25.98,83,20,6.17,US,1689696796
140,senanga,-16.1167,23.2667,21.95,22,0,1.14,ZM,1689696825
141,santarem,-2.4431,-54.7083,31.07,66,75,5.66,BR,1689696736
142,erenhot,43.6475,111.9767,29.03,29,74,6.82,CN,1689696825
143,jamestown,42.097,-79.2353,24.45,64,20,4.12,US,1689696825
144,chepo,9.1667,-79.1,27.88,92,100,3.53,PA,1689696825
145,talnakh,69.4865,88.3972,12.89,85,100,5.89,RU,1689696825
146,solok,-0.7918,100.6593,22.53,98,99,0.2,ID,1689696826
147,suzhou,31.3114,120.6181,25.98,90,99,2.22,CN,1689696604
148,kirakira,-10.4544,161.9205,25.76,89,100,0.8,SB,1689696826
149,badger,64.8,-147.5333,16.4,88,75,1.54,US,1689696826
150,ixtapa,20.7,-105.2,30.13,83,75,3.09,MX,1689696826
151,tongchuanshi,35.0806,109.0897,22.62,58,2,2.79,CN,1689696831
152,kourou,5.1552,-52.6478,31.03,62,14,4.64,GF,1689696831
153,praia da vitoria,38.7333,-27.0667,23.2,68,75,0.84,PT,1689696832
154,ribeira grande,38.5167,-28.7,23.22,68,20,2.06,PT,1689696832
155,svetlyy,54.675,20.1347,20.03,60,15,8.81,RU,1689696832
156,hadibu,12.65,54.0333,25.56,75,16,9.02,YE,1689696832
157,ciudad melchor muzquiz,27.8833,-101.5167,30.73,49,0,1.51,MX,1689696832
158,kingston,17.997,-76.7936,27.53,78,75,4.63,JM,1689696832
159,antsiranana,-12.2787,49.2917,23.72,68,1,7.83,MG,1689696832
160,nova vicosa,-17.8919,-39.3719,27.23,61,52,5.44,BR,1689696586
161,piacabucu,-10.4056,-36.4344,26.86,67,11,4.78,BR,1689696833
162,fort mcmurray,56.7268,-111.381,19.77,68,0,2.06,CA,1689696750
163,safford,32.834,-109.7076,31.51,37,0,0.0,US,1689696833
164,vilyuchinsk,52.9306,158.4028,11.99,91,12,3.97,RU,1689696743
165,hithadhoo,-0.6,73.0833,27.63,73,67,1.42,MV,1689696833
166,mount pearl,47.5166,-52.7813,27.47,79,75,8.23,CA,1689696827
167,wamba,8.9333,8.6,32.38,53,66,3.64,NG,1689696588
168,soufriere,13.8562,-61.0566,30.78,81,40,6.17,LC,1689696833
169,petropavlovsk-kamchatsky,53.0452,158.6483,10.33,100,0,2.0,RU,1689696834
170,tura,25.5198,90.2201,24.94,95,97,1.82,IN,1689696834
171,qaqortoq,60.7167,-46.0333,8.32,95,100,0.63,GL,1689696834
172,kodiak,57.79,-152.4072,12.73,94,100,3.09,US,1689696834
173,quepos,9.4236,-84.1652,29.31,71,60,1.96,CR,1689696834
174,ndele,8.4109,20.6473,28.2,74,82,1.78,CF,1689696834
175,fale old settlement,-9.3852,-171.2468,27.59,79,100,3.86,TK,1689696834
176,horta,38.5333,-28.6333,22.8,75,20,2.06,PT,1689696561
177,rio grande,-32.035,-52.0986,13.06,63,78,4.29,BR,1689696659
178,kununurra,-15.7667,128.7333,18.99,72,75,2.57,AU,1689696645
179,karratha,-20.7377,116.8463,20.52,34,12,3.13,AU,1689696835
180,hermanus,-34.4187,19.2345,12.11,84,58,9.99,ZA,1689696835
181,yarmouth,41.7057,-70.2286,27.56,90,100,3.6,US,1689696835
182,makurazaki,31.2667,130.3167,25.82,90,90,4.96,JP,1689696835
183,el bagre,7.5927,-74.8086,33.67,49,99,0.37,CO,1689696835
184,constantia,44.1833,28.65,32.38,53,60,7.7,RO,1689696836
185,kharp,66.8014,65.8081,20.37,71,57,0.39,RU,1689696836
186,nova sintra,14.8667,-24.7167,22.53,75,24,7.15,CV,1689696836
187,lautoka,-17.6167,177.4667,21.92,68,75,4.63,FJ,1689696836
188,haiku-pauwela,20.9219,-156.3051,23.47,82,40,5.66,US,1689696836
189,iskateley,67.6803,53.1512,20.05,73,96,0.72,RU,1689696836
190,anadyr,64.75,177.4833,14.28,77,0,5.0,RU,1689696837
191,nema,57.5067,50.5011,19.51,77,100,1.48,RU,1689696837
192,malango,-2.9627,119.9001,19.33,96,86,0.7,ID,1689696837
193,lihue,21.9789,-159.3672,26.77,78,20,6.69,US,1689696837
194,balsas,-7.5325,-46.0356,35.88,19,3,3.27,BR,1689696837
195,leava,-14.3,-178.1667,26.45,82,100,12.38,WF,1689696837
196,bathsheba,13.2167,-59.5167,29.34,84,20,6.17,BB,1689696837
197,oriximina,-1.7656,-55.8661,34.3,41,24,3.11,BR,1689696838
198,prymors'k,46.7348,36.3443,24.85,66,98,4.52,UA,1689696838
199,akoupe,6.39,-3.9003,24.88,96,99,1.74,CI,1689696838
200,tokar,18.4254,37.729,38.74,27,5,3.28,SD,1689696838
201,chichimila,20.6167,-88.2167,32.03,41,53,2.45,MX,1689696838
202,yumbel,-37.0833,-72.5667,8.13,68,100,0.61,CL,1689696838
203,bandarbeyla,9.4942,50.8122,24.26,79,55,15.29,SO,1689696838
204,papao,-17.75,-149.55,24.82,69,38,6.94,PF,1689696839
205,la passe,45.5549,-0.8967,29.13,59,1,8.19,FR,1689696839
206,cheremukhovo,60.3484,59.9851,18.85,84,100,2.07,RU,1689696839
207,puerto baquerizo moreno,-0.9,-89.6,25.55,89,75,4.12,EC,1689696839
208,cooma,-36.2333,149.1333,0.96,81,5,3.11,AU,1689696839
209,cabo san lucas,22.8909,-109.9124,35.1,51,20,3.09,MX,1689696628
210,mooloolaba,-26.6833,153.1167,15.72,89,54,3.24,AU,1689696839
211,charlestown,-32.95,151.6667,14.85,70,1,0.45,AU,1689696839
212,manacor,39.5696,3.2096,42.13,30,1,4.14,ES,1689696840
213,brandon,27.9378,-82.2859,32.27,88,0,1.54,US,1689696840
214,las palmas,28.4204,-14.0131,25.44,69,20,7.72,ES,1689696840
215,buala,-8.145,159.5921,26.37,85,78,3.07,SB,1689696840
216,sitka,57.0531,-135.33,15.94,72,75,0.0,US,1689696840
217,kapa'a,22.0752,-159.319,27.18,87,20,6.69,US,1689696840
218,sept-iles,50.2001,-66.3821,22.29,80,75,3.09,CA,1689696841
219,qarqaraly,49.4058,75.4742,24.56,27,100,5.52,KZ,1689696841
220,san matias,-16.3667,-58.4,28.55,41,100,2.92,BO,1689696841
221,puerto deseado,-47.7503,-65.8938,5.4,62,11,8.28,AR,1689696841
222,wewak,-3.5534,143.6268,26.14,84,100,1.96,PG,1689696841
223,ta`u,-14.2336,-169.5144,26.56,79,73,3.22,AS,1689696842
224,pangody,65.85,74.4859,19.29,59,62,4.4,RU,1689696842
225,lompoc,34.6391,-120.4579,24.08,76,40,2.57,US,1689696543
226,guerrero negro,27.9769,-114.0611,23.49,65,0,4.68,MX,1689696842
227,wailua homesteads,22.0669,-159.378,26.44,90,20,6.69,US,1689696842
228,six-fours-les-plages,43.0938,5.84,36.81,56,0,1.79,FR,1689696843
229,mwene-ditu,-7.0,23.45,28.15,21,2,0.97,CD,1689696843
230,palmer,42.1584,-72.3287,29.52,66,75,3.09,US,1689696843
231,sarikamis,40.3381,42.5731,14.8,56,1,3.09,TR,1689696843
232,yeppoon,-23.1333,150.7333,16.88,83,77,4.37,AU,1689696843
233,vila franca do campo,37.7167,-25.4333,22.23,62,80,1.33,PT,1689696844
234,moose jaw,50.4001,-105.5344,20.15,52,40,7.2,CA,1689696844
235,el granada,37.5027,-122.4694,23.27,85,100,5.14,US,1689696844
236,roma,43.2128,-75.4557,26.64,71,75,0.0,US,1689696844
237,tangalle,6.024,80.7911,28.09,83,59,6.02,LK,1689696849
238,remire-montjoly,4.9167,-52.2667,31.02,62,75,2.57,GF,1689696850
239,la mira,18.035,-102.3266,30.6,59,100,0.08,MX,1689696855
240,kenai,60.5544,-151.2583,14.52,95,75,2.57,US,1689696722
241,atafu village,-8.5421,-172.5159,27.22,83,80,3.62,TK,1689696855
242,dolinsk,47.35,142.8,13.69,95,8,2.78,RU,1689696855
243,ilhabela,-23.7781,-45.3581,20.53,88,99,3.16,BR,1689696855
244,margaret river,-33.95,115.0667,13.15,80,91,10.71,AU,1689696856
245,chom thong,18.4174,98.6743,28.14,93,100,1.12,TH,1689696856
246,itaituba,-4.2761,-55.9836,35.09,49,20,2.57,BR,1689696841
247,fortuna,40.5982,-124.1573,17.18,89,75,0.89,US,1689696856
248,kiunga,-6.1219,141.2906,21.98,99,100,1.31,PG,1689696856
249,zwedru,6.0667,-8.1281,24.9,91,100,1.55,LR,1689696856
250,aasiaat,68.7098,-52.8699,3.24,94,100,3.27,GL,1689696857
251,calella,41.618,2.6678,40.67,82,4,4.43,ES,1689696857
252,kilis,36.7161,37.115,36.13,8,0,4.9,TR,1689696857
253,shimokizukuri,40.8061,140.3861,20.8,96,100,0.65,JP,1689696857
254,kolwezi,-10.7148,25.4667,21.29,24,5,1.95,CD,1689696857
255,grand falls-windsor,48.9332,-55.6649,31.39,62,84,0.89,CA,1689696858
256,kimbe,-5.5502,150.1429,23.21,87,31,2.47,PG,1689696858
257,katsuren-haebaru,26.3369,127.8719,28.01,83,74,4.62,JP,1689696858
258,hede,33.7681,120.2517,23.55,95,19,1.38,CN,1689696858
259,tolanaro,-25.0319,46.9987,21.17,84,1,5.44,MG,1689696858
260,keflavik,64.0049,-22.5624,13.24,67,20,8.75,IS,1689696859
261,san patricio,28.017,-97.5169,35.49,43,5,4.71,US,1689696859
262,vorgashor,67.5833,63.95,19.22,75,66,2.32,RU,1689696859
263,isla mujeres,21.2311,-86.731,31.03,70,32,4.02,MX,1689696859
264,bogra,24.85,89.3667,29.19,78,91,3.32,BD,1689696859
265,opuwo,-18.0607,13.84,23.9,12,0,3.44,NA,1689696859
266,sienna plantation,29.4861,-95.508,34.57,62,75,3.09,US,1689696860
267,mansa,29.9833,75.3833,32.39,62,100,4.13,IN,1689696865
268,berdigestyakh,62.0989,126.6992,12.93,89,98,3.17,RU,1689696865
269,seward,40.907,-97.0989,20.34,85,100,2.24,US,1689696865
270,isafjordur,66.0755,-23.124,10.02,76,0,3.09,IS,1689696866
271,pisco,-13.7,-76.2167,20.03,68,100,3.09,PE,1689696866
272,praia,14.9215,-23.5087,29.3,54,75,6.69,CV,1689696779
273,tazovsky,67.4667,78.7,15.31,68,62,4.64,RU,1689696866
274,nabire,-3.3667,135.4833,23.92,93,62,2.39,ID,1689696867
275,inhambane,-23.865,35.3833,19.19,74,0,3.57,MZ,1689696867
276,queenstown,-31.8976,26.8753,17.44,25,2,7.16,ZA,1689696867
277,vadso,70.0744,29.7487,17.09,77,20,1.54,NO,1689696867
278,al jahra',29.3375,47.6581,42.01,9,0,1.43,KW,1689696868
279,fuglafjordur,62.244,-6.814,9.26,90,100,10.44,FO,1689696868
280,batie,9.8833,-2.9167,33.88,42,36,2.19,BF,1689696868
281,souillac,-20.5167,57.5167,23.21,73,40,5.66,MU,1689696868
282,alakurtti,66.9672,30.3491,17.45,78,96,3.0,RU,1689696868
283,shar'ya,58.3686,45.5144,21.17,68,67,1.71,RU,1689696869
284,baykan,38.1627,41.7833,31.63,23,0,1.31,TR,1689696869
285,lubuklinggau,-3.3,102.8667,24.41,76,91,0.38,ID,1689696869
286,shingu,33.7333,135.9833,24.96,87,100,3.1,JP,1689696869
287,caspe,41.234,-0.0395,41.08,20,48,9.14,ES,1689696869
288,holualoa,19.6228,-155.9522,23.91,83,20,6.17,US,1689696869
289,tahe,52.3333,124.7333,18.2,57,19,1.78,CN,1689696870
290,kerikeri,-35.2268,173.9474,7.17,93,13,1.5,NZ,1689696870
291,lindsay,36.203,-119.0882,36.67,33,0,2.57,US,1689696870
292,ulaangom,49.9811,92.0667,20.54,42,83,1.66,MN,1689696871
293,mount gambier,-37.8333,140.7667,4.06,88,9,1.02,AU,1689696871
294,san antonio de pale,-1.4014,5.6325,23.51,84,30,5.13,GQ,1689696871
295,villa la angostura,-40.7617,-71.6463,3.72,80,100,1.02,AR,1689696872
296,al ghayzah,16.2079,52.176,26.68,84,21,4.75,YE,1689696872
297,naples,40.8333,14.25,35.48,59,0,3.6,IT,1689696872
298,nola,40.922,14.5329,35.36,63,2,3.03,IT,1689696872
299,kiama,-34.6833,150.8667,11.67,67,0,4.2,AU,1689696872
300,rongelap,11.1635,166.8941,28.33,77,31,6.1,MH,1689696873
301,hovd,48.0056,91.6419,21.82,39,64,3.53,MN,1689696873
302,tsiombe,-25.3,45.4833,20.59,84,0,5.25,MG,1689696873
303,illizi,26.4833,8.4667,38.89,8,1,7.47,DZ,1689696874
304,pauini,-7.7136,-66.9764,34.42,40,4,1.61,BR,1689696607
305,port isabel,26.0734,-97.2086,35.02,63,20,7.72,US,1689696874
306,harstad,68.799,16.5293,13.66,100,97,4.02,NO,1689696874
307,tobati,-25.25,-57.0667,15.9,34,0,3.57,PY,1689696874
308,gorontalo,0.5412,123.0595,24.88,92,100,0.93,ID,1689696811
309,linares,-35.85,-71.6,14.07,63,99,1.78,CL,1689696875
310,vetlanda,57.4289,15.0776,17.81,51,82,5.19,SE,1689696875
311,aljezur,37.3191,-8.8033,25.28,51,45,5.64,PT,1689696875
312,raton,36.9034,-104.4391,32.19,10,75,2.8,US,1689696875
313,belyy yar,53.6039,91.3903,17.94,82,0,2.0,RU,1689696876
314,dauphin,51.1494,-100.0502,19.08,77,0,2.57,CA,1689696876
315,kerema,-7.9631,145.7785,23.84,87,52,2.79,PG,1689696876
316,twon-brass,4.3151,6.2418,26.04,84,59,7.01,NG,1689696876
317,sosnogorsk,63.6023,53.8817,23.4,54,38,1.29,RU,1689696876
318,nuuk,64.1835,-51.7216,11.34,93,100,1.54,GL,1689696876
319,tarko-sale,64.9225,77.785,18.89,56,76,3.14,RU,1689696877
320,gokwe,-18.2048,28.9349,15.46,23,4,0.55,ZW,1689696877
321,tidjikja,18.5564,-11.4271,38.69,25,97,5.96,MR,1689696877
322,port alfred,-33.5906,26.891,17.32,90,22,1.34,ZA,1689696877
323,fortaleza,-3.7227,-38.5247,31.07,55,40,6.17,BR,1689696664
324,tarauaca,-8.1614,-70.7656,33.62,45,6,1.24,BR,1689696877
325,spring creek,40.7266,-115.5859,26.89,25,15,2.24,US,1689696616
326,kavalerovo,44.2661,135.0572,17.07,99,68,0.37,RU,1689696742
327,pariaman,-0.619,100.12,25.03,88,100,1.83,ID,1689696878
328,port-gentil,-0.7193,8.7815,22.98,86,70,6.98,GA,1689696878
329,fuxin,42.0156,121.6589,24.19,64,29,1.62,CN,1689696878
330,penzance,50.1186,-5.5371,17.62,94,20,4.63,GB,1689696878
331,international falls,48.6011,-93.411,20.64,72,40,0.45,US,1689696878
332,braniewo,54.3797,19.8196,18.95,62,66,7.54,PL,1689696879
333,robertsport,6.7533,-11.3686,25.86,83,87,4.7,LR,1689696879
334,mata-utu,-13.2816,-176.1745,26.01,85,100,5.42,WF,1689696879
335,tannum sands,-23.9504,151.3693,16.94,77,40,2.06,AU,1689696879
336,farasan,16.7022,42.1183,32.49,70,9,2.94,SA,1689696879
337,januaria,-15.4833,-44.3667,32.25,23,6,3.35,BR,1689696879
338,barbalha,-7.3111,-39.3042,30.89,42,20,4.12,BR,1689696880
339,prado,-17.3411,-39.2208,26.36,64,13,5.17,BR,1689696880
340,kone,-21.0595,164.8658,19.17,88,92,2.41,NC,1689696699
341,ksar chellala,35.2122,2.3189,39.56,6,1,4.56,DZ,1689696880
342,marsh harbour,26.5412,-77.0636,29.48,72,74,4.83,BS,1689696880
343,noumea,-22.2763,166.4572,17.99,75,74,4.18,NC,1689696614
344,colonia,50.9333,6.95,27.75,36,0,3.6,DE,1689696774
345,weno,7.4515,151.8468,25.97,94,100,2.06,FM,1689696881
346,koulamoutou,-1.1303,12.4736,29.82,60,98,1.55,GA,1689696881
347,urengoy,65.9667,78.3667,17.73,62,97,2.54,RU,1689696881
348,lys'va,58.1086,57.8053,17.28,87,100,3.2,RU,1689696881
349,howrah,22.5892,88.3103,29.0,89,20,2.06,IN,1689696881
350,trujillo,-8.116,-79.03,22.98,78,22,4.12,PE,1689696651
351,maceio,-9.6658,-35.7353,28.69,65,40,5.66,BR,1689696651
352,ad dilam,23.9915,47.1627,41.09,7,1,2.83,SA,1689696623
353,choyr,46.3611,108.3611,17.57,75,100,8.29,MN,1689696882
354,touros,-5.1989,-35.4608,28.62,63,36,7.8,BR,1689696882
355,chiredzi,-21.05,31.6667,19.34,35,0,2.25,ZW,1689696882
356,awjilah,29.1081,21.2869,38.88,10,0,6.09,LY,1689696882
357,teluknaga,-6.0989,106.6381,26.1,78,20,2.06,ID,1689696882
358,castillos,-34.1667,-53.8333,10.29,60,92,3.4,UY,1689696882
359,hamilton,39.1834,-84.5333,27.1,80,40,3.09,US,1689696631
360,nanning,22.8167,108.3167,26.25,93,100,6.99,CN,1689696882
361,cooper's town,26.8667,-77.5167,28.8,75,98,3.79,BS,1689696883
362,nacala,-14.5428,40.6728,22.99,73,1,4.97,MZ,1689696883
363,linkenheim-hochstetten,49.132,8.4124,29.9,36,63,0.29,DE,1689696883
364,berezovyy,51.6667,135.7,19.91,49,6,2.14,RU,1689696883
365,east ballina,-28.8667,153.5833,13.22,91,72,3.95,AU,1689696883
366,aizawl,23.7333,92.7167,19.47,99,58,1.15,IN,1689696884
367,halmstad,56.6745,12.8568,18.9,77,75,5.14,SE,1689696884
368,khandyga,62.6667,135.6,15.85,98,56,2.84,RU,1689696884
369,chernyshevskiy,63.0128,112.4714,13.78,54,95,2.56,RU,1689696884
370,taunsa,30.7048,70.6505,41.89,27,0,4.96,PK,1689696884
371,mutoko,-17.397,32.2268,13.54,33,1,2.3,ZW,1689696884
372,selfoss,63.9331,-20.9971,20.02,47,2,5.12,IS,1689696884
373,bukene,-4.2333,32.8833,24.11,28,6,1.94,TZ,1689696885
374,mazidagi,37.4775,40.4881,33.5,16,0,5.37,TR,1689696885
375,chkalovsk,56.7647,43.2433,21.88,71,33,3.32,RU,1689696885
376,aginskoye,51.1,114.53,14.95,82,0,3.82,RU,1689696885
377,okha,53.5739,142.9478,9.92,95,57,1.62,RU,1689696885
378,kiffa,16.6166,-11.4045,38.64,30,95,3.83,MR,1689696885
379,mbanza kongo,-6.267,14.2401,33.7,21,59,2.21,AO,1689696885
380,macapa,0.0389,-51.0664,31.99,66,40,5.66,BR,1689696651
381,olinda,-8.0089,-34.8553,28.85,65,40,8.23,BR,1689696886
382,revda,56.801,59.9303,15.73,94,100,2.3,RU,1689696886
383,conduaga,8.862,117.4893,26.67,81,100,2.55,PH,1689696886
384,tibanbang,6.6315,126.1055,25.31,83,100,2.65,PH,1689696886
385,tutoia,-2.7619,-42.2744,30.27,53,0,5.29,BR,1689696886
386,shimoda,34.6667,138.95,25.84,88,100,3.33,JP,1689696886
387,kokstad,-30.5472,29.4241,14.42,28,2,2.95,ZA,1689696886
388,saldanha,-33.0117,17.9442,13.61,82,48,8.35,ZA,1689696887
389,malanje,-9.5402,16.341,29.32,17,6,1.45,AO,1689696887
390,yaren,-0.5472,166.916,28.14,74,100,0.28,NR,1689696887
391,nekrasovka,48.3525,135.2325,19.01,100,0,2.0,RU,1689696887
392,ardestan,33.3761,52.3694,34.22,19,1,3.71,IR,1689696887
393,jawf al maqbabah,13.8378,45.8349,31.22,50,50,2.27,YE,1689696887
394,tripoli,32.8752,13.1875,31.05,50,0,4.39,LY,1689696588
395,darwin,-12.4611,130.8418,22.99,83,40,1.54,AU,1689696888
396,melfort,52.8667,-104.6177,16.07,77,100,4.63,CA,1689696888
397,vrangel',42.7297,133.0839,17.27,95,5,1.05,RU,1689696888
398,filingue,14.3521,3.3168,40.45,21,20,2.0,NE,1689696888
399,waddan,29.1614,16.139,37.57,14,0,6.5,LY,1689696888
400,jati,24.3539,68.2671,29.69,70,100,7.51,PK,1689696888
401,salekhard,66.53,66.6019,21.19,61,48,3.53,RU,1689696889
402,newark,40.7357,-74.1724,30.95,68,75,5.14,US,1689696697
403,bayeux,-7.125,-34.9322,28.35,69,75,8.23,BR,1689696889
404,carangola,-20.7331,-42.0294,30.88,36,9,1.98,BR,1689696889
405,ujae,8.9322,165.7642,28.15,78,39,5.33,MH,1689696889
406,mahajanga,-15.7167,46.3167,27.64,51,42,0.08,MG,1689696889
407,helsingborg,56.0467,12.6944,19.92,72,37,7.44,SE,1689696890
408,dunedin,-45.8742,170.5036,7.86,81,60,2.22,NZ,1689696890
409,taulaga,-11.0553,-171.0883,27.5,76,100,2.98,AS,1689696739
410,urganch,41.55,60.6333,25.97,57,0,3.09,UZ,1689696890
411,kayangel,8.0823,134.7173,27.11,80,100,9.01,PW,1689696890
412,al kharijah,25.4514,30.5464,40.61,11,0,5.9,EG,1689696890
413,champerico,14.3,-91.9167,33.3,68,100,1.39,GT,1689696890
414,valledupar,10.4631,-73.2532,31.83,14,75,2.57,CO,1689696891
415,vradiyivka,47.862,30.5919,24.61,62,55,6.4,UA,1689696891
416,cidreira,-30.1811,-50.2056,13.63,55,97,3.78,BR,1689696891
417,amga,60.8953,131.9608,17.02,97,85,2.86,RU,1689696743
418,kutum,14.2,24.6667,33.9,20,91,1.18,SD,1689696891
419,ingeniero jacobacci,-41.3427,-69.5448,-0.3,76,99,1.8,AR,1689696891
420,jericho,31.8667,35.45,35.34,39,0,6.19,PS,1689696891
421,kismayo,-0.3582,42.5454,25.27,79,9,7.34,SO,1689696624
422,hirara,24.8,125.2833,26.92,94,100,1.54,JP,1689696892
423,ridgecrest,35.6225,-117.6709,33.59,20,2,0.89,US,1689696892
424,coahuayana de hidalgo,18.7,-103.6583,32.23,57,98,0.99,MX,1689696892
425,pitalito,1.8497,-76.0479,22.96,64,69,1.87,CO,1689696623
426,genhe,50.7833,121.5167,16.06,94,18,1.42,CN,1689696892
427,camocim,-2.9022,-40.8411,32.48,44,0,5.54,BR,1689696892
428,tommot,58.9564,126.2925,16.61,97,100,1.92,RU,1689696892
429,alice springs,-23.7,133.8833,5.75,81,0,0.0,AU,1689696892
430,nemuro,43.3236,145.575,13.05,94,100,1.97,JP,1689696862
431,margate,51.3813,1.3862,22.15,58,84,2.68,GB,1689696893
432,lepsy,46.235,78.9456,28.72,23,3,3.28,KZ,1689696893
433,naze,28.3667,129.4833,26.51,82,90,5.19,JP,1689696893
434,turpan,42.9333,89.1667,36.7,18,100,3.74,CN,1689696893
435,pachino,36.7186,15.0907,31.8,48,0,2.1,IT,1689696893
436,lamu,-2.2717,40.902,26.12,80,11,6.74,KE,1689696894
437,sabha,27.0377,14.4283,37.31,11,0,6.12,LY,1689696894
438,magistral'nyy,56.1725,107.4458,10.87,85,6,1.78,RU,1689696894
439,hopelchen,19.7667,-89.85,34.52,41,29,2.53,MX,1689696894
440,pyin oo lwin,22.0333,96.4667,21.34,88,67,1.32,MM,1689696894
441,tamazulapam villa del progreso,17.6806,-97.5689,19.58,63,99,4.48,MX,1689696894
442,flying fish cove,-10.4217,105.6791,24.82,78,40,6.17,CX,1689696895
443,alaghsas,17.0187,8.0168,41.15,13,5,5.43,NE,1689696895
444,ghat,24.9647,10.1728,38.22,6,0,6.42,LY,1689696895
445,lalgola,24.4167,88.25,29.08,81,82,3.74,IN,1689696895
446,pandan,14.0453,124.1694,26.45,87,84,2.47,PH,1689696895
447,mogadishu,2.0371,45.3438,25.06,84,26,8.35,SO,1689696761
448,zakamensk,50.3741,103.2863,11.34,91,38,0.25,RU,1689696896
449,dudinka,69.4058,86.1778,14.05,75,100,6.75,RU,1689696896
450,merizo village,13.2658,144.6691,28.31,88,97,4.57,GU,1689696896
451,murghob,38.1702,73.9667,15.83,53,76,1.92,TJ,1689696896
452,kingsville,27.5159,-97.8561,34.98,56,20,6.69,US,1689696896
453,burang,30.25,81.1667,12.54,88,98,2.44,CN,1689696897
454,nadi,-17.8,177.4167,22.0,68,75,4.63,FJ,1689696897
455,waingapu,-9.6567,120.2641,22.35,83,3,4.68,ID,1689696897
456,tongchuan,35.0806,109.0897,22.62,58,2,2.79,CN,1689696897
457,conde,-7.2597,-34.9075,27.7,69,75,8.23,BR,1689696897
458,usakos,-22.0,15.6,23.34,12,0,1.44,NA,1689696897
459,estevan,49.1334,-102.9842,21.11,64,0,3.6,CA,1689696898
460,freetown,8.484,-13.2299,25.97,84,100,3.74,SL,1689696898
461,newman,37.3138,-121.0208,29.47,22,2,1.19,US,1689696898
462,keelung,25.1283,121.7419,27.83,87,100,2.82,TW,1689696898
463,fort-shevchenko,44.5086,50.263,24.59,62,0,7.18,KZ,1689696898
464,alamogordo,32.8995,-105.9603,35.33,14,0,4.63,US,1689696886
465,bel ombre,-4.6167,55.4167,25.91,73,20,3.6,SC,1689696898
466,mitchell,43.7094,-98.0298,22.99,56,0,6.69,US,1689696632
467,mirnyy,62.5353,113.9611,10.64,69,33,1.83,RU,1689696899
468,acajutla,13.5928,-89.8275,31.24,55,97,1.28,SV,1689696833
469,yuzhno-kurilsk,44.0306,145.8556,12.39,94,77,1.19,RU,1689696899
470,sao jose da coroa grande,-8.8978,-35.1478,26.75,69,20,5.43,BR,1689696899
471,ar ruways,24.1103,52.7306,32.92,61,10,3.08,AE,1689696899
472,chatra,24.2167,84.8667,27.63,75,43,3.65,IN,1689696900
473,carnarvon,-24.8667,113.6333,19.19,78,9,5.74,AU,1689696675
474,sao tome,0.3365,6.7273,24.73,85,84,5.07,ST,1689696900
475,andalgala,-27.5819,-66.3165,12.34,49,18,3.12,AR,1689696900
476,viedma,-40.8135,-62.9967,8.03,28,6,6.61,AR,1689696901
477,ugoofaaru,5.6667,73.0,28.72,75,100,5.18,MV,1689696901
478,bonthe,7.5264,-12.505,26.47,81,99,4.14,SL,1689696902
479,lazaro cardenas,17.9583,-102.2,30.65,59,98,0.62,MX,1689696909
480,axim,4.8699,-2.2405,25.34,86,88,5.37,GH,1689696910
481,okahandja,-21.9833,16.9167,20.36,14,0,0.8,NA,1689696911
482,galliano,29.4422,-90.2992,34.44,62,75,2.57,US,1689696911
483,beira,-19.8436,34.8389,23.05,100,20,3.6,MZ,1689696911
484,leh,34.1667,77.5833,22.88,30,16,3.2,IN,1689696912
485,zhangye,38.9342,100.4517,28.51,21,46,3.09,CN,1689696745
486,seminole,28.7086,-81.2081,34.05,68,40,0.89,US,1689696912
487,hartford city,40.4511,-85.37,25.05,78,54,0.45,US,1689696913
488,ust-tsilma,65.441,52.1498,22.64,57,72,0.85,RU,1689696913
489,poronaysk,49.2167,143.1167,13.33,94,21,2.29,RU,1689696913
490,codrington,-38.2667,141.9667,5.64,80,16,2.47,AU,1689696913
491,uzice,43.8586,19.8488,28.21,62,0,1.65,RS,1689696914
492,uribia,11.7139,-72.266,33.19,49,94,9.57,CO,1689696914
493,fernley,39.608,-119.2518,30.88,21,31,2.24,US,1689696676
494,restrepo,3.822,-76.5224,25.19,57,26,1.23,CO,1689696914
495,ha'il,27.5219,41.6907,39.01,12,0,8.23,SA,1689696915
496,antonio enes,-16.2325,39.9086,22.7,72,1,4.79,MZ,1689696915
497,yelizovo,53.1873,158.3805,11.08,100,0,2.0,RU,1689696915
498,maragogi,-9.0122,-35.2225,26.63,70,23,5.41,BR,1689696915
499,saudarkrokur,65.7461,-19.6394,7.87,83,82,4.64,IS,1689696916
500,zara,44.1197,15.2422,34.34,40,0,5.14,HR,1689696916
501,badiyah,22.45,58.8,39.0,24,100,3.48,OM,1689696916
502,nova olimpia,-14.7972,-57.2881,33.4,29,79,1.91,BR,1689696916
503,chui,-33.6971,-53.4616,10.59,58,91,2.9,UY,1689696771
504,deder,9.3167,41.45,18.82,65,40,2.84,ET,1689696917
505,bandar lampung,-5.4254,105.258,22.86,92,20,0.94,ID,1689696917
506,port blair,11.6667,92.75,29.02,84,75,5.66,IN,1689696917
507,besisahar,28.2313,84.3761,25.24,79,98,1.52,NP,1689696917
508,ierapetra,35.01,25.7353,30.41,37,0,7.47,GR,1689696918
509,kodinsk,58.6881,99.1844,13.92,56,6,0.64,RU,1689696919
510,coquimbo,-29.9533,-71.3436,19.85,63,0,3.09,CL,1689696743
511,inarajan village,13.2736,144.7484,28.54,88,98,4.35,GU,1689696919
512,arraial do cabo,-22.9661,-42.0278,23.92,78,40,5.14,BR,1689696630
513,tralee,52.2704,-9.7026,16.95,80,49,4.48,IE,1689696920
514,palikir - national government center,6.9248,158.1611,25.41,94,100,0.0,FM,1689696920
515,pangai,-19.8,-174.35,21.93,63,85,9.68,TO,1689696920
516,chardara,41.2547,67.9692,31.1,30,13,4.88,KZ,1689696920
517,pasni,25.2631,63.471,27.91,83,64,6.5,PK,1689696921
518,puerto santa,-8.9906,-78.6456,22.34,72,56,4.15,PE,1689696921
519,portland,45.5234,-122.6762,20.65,70,0,2.57,US,1689696650
520,hohhot,40.8106,111.6522,26.62,56,0,2.0,CN,1689696921
521,bria,6.5423,21.9863,23.71,89,80,0.68,CF,1689696922
522,el bauga,18.262,33.9081,41.97,7,100,3.71,SD,1689696922
523,kuqa,41.7278,82.9364,32.47,20,1,2.6,CN,1689696922
524,inverloch,-38.6333,145.7167,9.26,66,49,5.54,AU,1689696922
525,mossel bay,-34.1831,22.146,13.96,82,27,10.37,ZA,1689696923
526,tazacorte,28.629,-17.9293,25.08,70,75,4.63,ES,1689696923
527,aykhal,66.0,111.5,12.5,77,42,4.79,RU,1689696923
528,guaranda,-1.6,-79.0,17.17,58,77,3.18,EC,1689696923
529,klaksvik,62.2266,-6.589,9.51,88,100,11.71,FO,1689696924
530,turan,16.0678,108.2208,29.99,74,20,1.03,VN,1689696924
531,robore,-18.3333,-59.75,19.05,63,75,0.0,BO,1689696924
532,pyapon,16.2833,95.6833,25.16,93,90,2.49,MM,1689696925
533,taro,-8.3862,115.28,22.0,91,81,1.31,ID,1689696925
534,plastun,44.7561,136.2939,15.78,97,74,0.88,RU,1689696925
535,ratnagiri,16.9833,73.3,25.42,88,100,5.92,IN,1689696925
536,eirunepe,-6.6603,-69.8736,33.41,48,10,0.93,BR,1689696926
537,stranraer,54.9023,-5.0273,13.06,93,100,2.47,GB,1689696926
538,hotan,37.0997,79.9269,34.53,13,4,0.94,CN,1689696926
539,hasaki,35.7333,140.8333,24.22,87,100,2.35,JP,1689696927
540,yuktae-dong,40.0247,128.1597,21.01,91,2,1.02,KP,1689696927
541,nili,33.7218,66.1302,27.19,12,1,3.63,AF,1689696687
542,kurmuk,10.55,34.2833,25.87,79,55,2.15,SD,1689696927
543,borogontsy,62.6683,131.1683,13.02,98,88,2.65,RU,1689696927
544,okhotsk,59.3833,143.3,13.95,75,23,1.8,RU,1689696928
545,lerwick,60.1545,-1.1494,14.0,74,81,8.01,GB,1689696928
546,sao felipe,-14.8167,-41.3833,30.66,25,3,2.34,BR,1689696928
547,mugia,43.1041,-9.2179,26.62,76,7,7.52,ES,1689696928
548,kidal,18.4411,1.4078,41.65,14,20,4.67,ML,1689696929
549,wenchang,30.904,118.4887,25.54,93,100,1.66,CN,1689696929
550,matoury,4.8483,-52.3317,30.98,62,75,2.57,GF,1689696929
551,sandnessjoen,66.0217,12.6316,15.29,77,40,5.14,NO,1689696930
